[
   {
      "id":"500",
      "name":"Blue Light Service and Campus Escorts",
      "phone":"607-255-7373",
      "website":"http://www.cupolice.cornell.edu/emergency/blue_light.cfm",
      "location":"Various",
   },
   {
      "id":"501",
      "name":"Campus Police",
      "phone":"607-255-1111",
      "website":"http://www.cupolice.cornell.edu/",
      "location":"G2 Barton Hall",
   },
   {
      "id":"502",
      "name":"Carol Tatkon Center, Center for First-Year Students",
      "phone":"607-253-4282",
      "website":"http://newstudentprograms.cornell.edu/Tatkon/",
      "location":"3058 South Balch Hall",
   },
   {
      "id":"503",
      "name":"IT Service Desk",
      "phone":"607-255-5500",
      "website":"http://www.it.cornell.edu/support/",
      "location":"119 Computing and Communications Center (CCC)",
   },
   {
      "id":"504",
      "name":"Cornell United Religious Work",
      "phone":"607-255-4214",
      "website":"http://www.curw.cornell.edu/",
      "location":"Anabel Taylor Hall",
   },   
   {
      "id":"505",
      "name":"Cornell Women's Resource Center",
      "phone":"607-255-0015",
      "website":"http://wrc.dos.cornell.edu/",
      "location":"209 Willard Straight Hall",
   },
   {
      "id":"506",
      "name":"Counseling and Psychological Services (CAPS)",
      "phone":"607-255-5208",
      "website":"http://www.gannett.cornell.edu/services/counseling/caps/index.cfm",
      "location":"Gannett Health Services, Central Campus",
   },
   {
      "id":"507",
      "name":"Dining",
      "phone":"607-255-5368",
      "website":"http://www.campuslife.cornell.edu/campuslife/dining/",
      "location":"206 Robert Purcell Community Center",
   },
   {			
      "id":"508",
      "name":"Emergency Services",
      "phone":"911",
      "website":"http://www.cupolice.cornell.edu/",
      "location":"G2 Barton Hall",
   },
   {
      "id":"509",
      "name":"Empathy, Assistance, and Referral Service (EARS)",
      "phone":"607-255-3277",
      "website":"http://ears.dos.cornell.edu/",
      "location":"213 Willard Straight Hall",
   },
   {
      "id":"510",
      "name":"Gannett Health Services",
      "phone":"607-255-5155",
      "website":"http://www.gannett.cornell.edu/",
      "location":"Gannett Health Services, Central Campus",
   },
   {
      "id":"511",
      "name":"General Information",
      "phone":"607-254-4636",
      "website":"http://www.cornell.edu",
      "location":"Day Hall Lobby",
   },
   {						
      "id":"512",
      "name":"Housing Office",
      "phone":"607-255-5368",
      "website":"http://www.campuslife.cornell.edu/campuslife/housing/",
      "location":"206 Robert Purcell Community Center",
   },
   {   			
      "id":"513",
      "name":"Intercultural Center",
      "phone":"607-255-3693",
      "website":"http://dos.cornell.edu/intercultural/",
      "location":"626 Thurston Avenue",
   },
   {  
      "id":"514",
      "name":"International Students and Scholars Office (ISSO)",
      "phone":"607-255-5243",
      "website":"http://isso.cornell.edu",
      "location":"B50 Caldwell Hall",
   },
   { 
      "id":"515",
      "name":"Learning Strategies Center",
      "phone":"607-255-6310",
      "website":"http://lsc.cornell.edu/",
      "location":"420 Computing & Communications Center (CCC)",
   },
   {								
      "id":"516",
      "name":"Lesbian, Gay, Bisexual, Transgender Resource Center",
      "phone":"607-254-4987",
      "website":"http://www.lgbtrc.cornell.edu/",
      "location":"Intercultural Center, 626 Thurston Avenue",
   },
   {   						
      "id":"517",
      "name":"New Student Programs",
      "phone":"607-253-4282",
      "website":"http://newstudentprograms.cornell.edu/",
      "location":"3058 South Balch Hall",
   },
   {									
      "id":"518",
      "name":"Off-Campus Housing",
      "phone":"607-255-2310",
      "website":"http://www.dos.cornell.edu/ocho/",
      "location":"536 Willard Straight Hall",
   },
   {   						
      "id":"519",
      "name":"Office of Academic Diversity Initiatives",
      "phone":"607-255-3841",
      "website":"http://www.oadi.cornell.edu/",
      "location":"200 Computing & Communications Center (CCC)",
   },
   {  			
      "id":"520",
      "name":"Office of Financial Aid",
      "phone":"607-255-5145",
      "website":"http://www.finaid.cornell.edu/",
      "location":"203 Day Hall",
   },
   { 			
      "id":"521",
      "name":"Orientation",
      "phone":"607-255-5808",
      "website":"http://newstudentprograms.cornell.edu/orientation/",
      "location":"3058 South Balch Hall",
   },
   {										
      "id":"522",
      "name":"Residential Programs",
      "phone":"607-255-5533",
      "website":"http://www.campuslife.cornell.edu/campuslife/resprog/index.cfm",
      "location":"1501 Dickson Hall",
   },
   {   								
      "id":"523",
      "name":"Student Activities",
      "phone":"607-255-4169",
      "website":"http://dos.cornell.edu/dos/activities/",
      "location":"520 Willard Straight Hall",
   },
   {										
      "id":"524",
      "name":"Student Disability Services",
      "phone":"607-254-4545",
      "website":"http://sds.cornell.edu/",
      "location":"420 Computing & Communications Center (CCC)",
   },
   {   							
      "id":"525",
      "name":"Student Employment",
      "phone":"607-255-5145",
      "website":"http://studentemployment.cornell.edu/",
      "location":"203 Day Hall",
   }
]